[{"name":"남영돈","lat":37.54288041734663,"lng":126.97382677097745,"menu":"고기"},{"name":"서서갈비","lat":37.56854052302683,"lng":127.06983006164066,"menu":"고기"},{"name":"조연탄","lat":37.531009819715884,"lng":126.86327932680119,"menu":"고기"},{"name":"선명구이가","lat":37.54732383273151,"lng":126.97833858262574,"menu":"고기"},{"name":"타지팰리스","lat":37.544507318210925,"lng":126.99151164678572,"menu":"카레"},{"name":"죠티인도","lat":37.55504468019195,"lng":126.93792936192362,"menu":"카레"},{"name":"예티","lat":37.56556347662489,"lng":126.92337871533127,"menu":"카레"}]